{"type":"FeatureCollection","features":[{"type":"Feature","properties":{"NAME":"Kingston upon Thames","GSS_CODE":"E09000021","2010":416298.538,"2013":397393.014,"2016":379459.4813},"geometry":{"type":"Point","coordinates":[-0.2869145,51.3878938]}},{"type":"Feature","properties":{"NAME":"Croydon","GSS_CODE":"E09000008","2010":783304.6673,"2013":730058.7375,"2016":719743.756},"geometry":{"type":"Point","coordinates":[-0.087165,51.3553179]}},{"type":"Feature","properties":{"NAME":"Bromley","GSS_CODE":"E09000006","2010":799717.3946,"2013":751013.6826,"2016":735270.1},"geometry":{"type":"Point","coordinates":[0.0515377,51.3719842]}},{"type":"Feature","properties":{"NAME":"Hounslow","GSS_CODE":"E09000018","2010":877399.5208,"2013":765970.6211,"2016":755243.7376},"geometry":{"type":"Point","coordinates":[-0.3671503,51.468381]}},{"type":"Feature","properties":{"NAME":"Ealing","GSS_CODE":"E09000009","2010":836862.7748,"2013":794879.5154,"2016":771312.9982},"geometry":{"type":"Point","coordinates":[-0.3310186,51.5224761]}},{"type":"Feature","properties":{"NAME":"Havering","GSS_CODE":"E09000016","2010":852539.6552,"2013":704618.8205,"2016":676936.5897},"geometry":{"type":"Point","coordinates":[0.2211176,51.5643683]}},{"type":"Feature","properties":{"NAME":"Hillingdon","GSS_CODE":"E09000017","2010":1956126.757,"2013":1785476.389,"2016":1766130.936},"geometry":{"type":"Point","coordinates":[-0.445662,51.5414719]}},{"type":"Feature","properties":{"NAME":"Harrow","GSS_CODE":"E09000015","2010":589287.4199,"2013":530153.1139,"2016":487340.5576},"geometry":{"type":"Point","coordinates":[-0.3412742,51.5977187]}},{"type":"Feature","properties":{"NAME":"Brent","GSS_CODE":"E09000005","2010":671365.4394,"2013":655693.5986,"2016":1146107.508},"geometry":{"type":"Point","coordinates":[-0.2678113,51.5585544]}},{"type":"Feature","properties":{"NAME":"Barnet","GSS_CODE":"E09000003","2010":999819.6954,"2013":938770.7393,"2016":931612.906},"geometry":{"type":"Point","coordinates":[-0.2100174,51.6160186]}},{"type":"Feature","properties":{"NAME":"Lambeth","GSS_CODE":"E09000022","2010":629955.5696,"2013":602876.0893,"2016":546808.4515},"geometry":{"type":"Point","coordinates":[-0.1182788,51.4530793]}},{"type":"Feature","properties":{"NAME":"Southwark","GSS_CODE":"E09000028","2010":606903.6085,"2013":584501.1172,"2016":547246.111},"geometry":{"type":"Point","coordinates":[-0.0746025,51.4731375]}},{"type":"Feature","properties":{"NAME":"Lewisham","GSS_CODE":"E09000023","2010":815399.232,"2013":874429.8389,"2016":701847.2387},"geometry":{"type":"Point","coordinates":[-0.020251,51.4480863]}},{"type":"Feature","properties":{"NAME":"Greenwich","GSS_CODE":"E09000011","2010":623929.9689,"2013":578194.4875,"2016":544298.67},"geometry":{"type":"Point","coordinates":[0.0566353,51.4727551]}},{"type":"Feature","properties":{"NAME":"Bexley","GSS_CODE":"E09000004","2010":832191.5506,"2013":534854.948,"2016":2346654.669},"geometry":{"type":"Point","coordinates":[0.1403457,51.4588109]}},{"type":"Feature","properties":{"NAME":"Enfield","GSS_CODE":"E09000010","2010":2294907.669,"2013":1582031.702,"2016":1870189.867},"geometry":{"type":"Point","coordinates":[-0.0872645,51.650992]}},{"type":"Feature","properties":{"NAME":"Waltham Forest","GSS_CODE":"E09000031","2010":514307.4937,"2013":476691.1135,"2016":467117.9047},"geometry":{"type":"Point","coordinates":[-0.0126453,51.594022]}},{"type":"Feature","properties":{"NAME":"Redbridge","GSS_CODE":"E09000026","2010":631263.0949,"2013":591193.149,"2016":580323.1483},"geometry":{"type":"Point","coordinates":[0.0758657,51.5856699]}},{"type":"Feature","properties":{"NAME":"Sutton","GSS_CODE":"E09000029","2010":450170.4536,"2013":366291.1562,"2016":359545.8633},"geometry":{"type":"Point","coordinates":[-0.1775702,51.3620889]}},{"type":"Feature","properties":{"NAME":"Richmond upon Thames","GSS_CODE":"E09000027","2010":544765.6197,"2013":542182.0536,"2016":497155.739},"geometry":{"type":"Point","coordinates":[-0.3129891,51.4421713]}},{"type":"Feature","properties":{"NAME":"Merton","GSS_CODE":"E09000024","2010":440328.5044,"2013":413524.3237,"2016":395774.0988},"geometry":{"type":"Point","coordinates":[-0.1972465,51.4099498]}},{"type":"Feature","properties":{"NAME":"Wandsworth","GSS_CODE":"E09000032","2010":657269.6497,"2013":608437.6893,"2016":582577.6179},"geometry":{"type":"Point","coordinates":[-0.186442,51.4513538]}},{"type":"Feature","properties":{"NAME":"Hammersmith and Fulham","GSS_CODE":"E09000013","2010":457454.2214,"2013":415723.8467,"2016":406433.2474},"geometry":{"type":"Point","coordinates":[-0.2212787,51.4959479]}},{"type":"Feature","properties":{"NAME":"Kensington and Chelsea","GSS_CODE":"E09000020","2010":505630.8559,"2013":443941.2745,"2016":445887.3639},"geometry":{"type":"Point","coordinates":[-0.1927628,51.5016108]}},{"type":"Feature","properties":{"NAME":"Westminster","GSS_CODE":"E09000033","2010":1091443.341,"2013":998596.8296,"2016":955692.9171},"geometry":{"type":"Point","coordinates":[-0.1612969,51.5138977]}},{"type":"Feature","properties":{"NAME":"Camden","GSS_CODE":"E09000007","2010":672291.5655,"2013":644087.8601,"2016":628638.3827},"geometry":{"type":"Point","coordinates":[-0.1574151,51.5463925]}},{"type":"Feature","properties":{"NAME":"Tower Hamlets","GSS_CODE":"E09000030","2010":505632.7971,"2013":479036.2192,"2016":476354.1885},"geometry":{"type":"Point","coordinates":[-0.0355841,51.5171694]}},{"type":"Feature","properties":{"NAME":"Islington","GSS_CODE":"E09000019","2010":444224.9062,"2013":411481.9457,"2016":400110.9413},"geometry":{"type":"Point","coordinates":[-0.1102463,51.5484834]}},{"type":"Feature","properties":{"NAME":"Hackney","GSS_CODE":"E09000012","2010":404897.9855,"2013":386497.9985,"2016":370050.8162},"geometry":{"type":"Point","coordinates":[-0.0633153,51.5522649]}},{"type":"Feature","properties":{"NAME":"Haringey","GSS_CODE":"E09000014","2010":491283.0834,"2013":450095.0686,"2016":446732.9449},"geometry":{"type":"Point","coordinates":[-0.1074727,51.590374]}},{"type":"Feature","properties":{"NAME":"Newham","GSS_CODE":"E09000025","2010":957831.9841,"2013":791308.5688,"2016":715443.8955},"geometry":{"type":"Point","coordinates":[0.0754787,51.529844]}},{"type":"Feature","properties":{"NAME":"Barking and Dagenham","GSS_CODE":"E09000002","2010":2714636.628,"2013":662118.3104,"2016":378497.2162},"geometry":{"type":"Point","coordinates":[0.1339515,51.5453334]}},{"type":"Feature","properties":{"NAME":"City of London","GSS_CODE":"E09000001","2010":243569.1379,"2013":215131.4776,"2016":220492.4871},"geometry":{"type":"Point","coordinates":[-0.0921711,51.5148448]}}]}