{"type":"FeatureCollection","features":[{"type":"Feature","properties":{"NAME":"Kingston upon Thames","GSS_CODE":"E09000021","2010":87.7727413,"2013":75.9195735,"2016":76.2711712},"geometry":{"type":"Point","coordinates":[-0.2869145,51.3878938]}},{"type":"Feature","properties":{"NAME":"Croydon","GSS_CODE":"E09000008","2010":172.0921839,"2013":148.2689644,"2016":138.6845979},"geometry":{"type":"Point","coordinates":[-0.087165,51.3553179]}},{"type":"Feature","properties":{"NAME":"Bromley","GSS_CODE":"E09000006","2010":209.8702274,"2013":173.3990969,"2016":160.3228065},"geometry":{"type":"Point","coordinates":[0.0515377,51.3719842]}},{"type":"Feature","properties":{"NAME":"Hounslow","GSS_CODE":"E09000018","2010":166.2569057,"2013":141.220105,"2016":123.4814885},"geometry":{"type":"Point","coordinates":[-0.3671503,51.468381]}},{"type":"Feature","properties":{"NAME":"Ealing","GSS_CODE":"E09000009","2010":192.4311273,"2013":168.1641104,"2016":161.6640228},"geometry":{"type":"Point","coordinates":[-0.3310186,51.5224761]}},{"type":"Feature","properties":{"NAME":"Havering","GSS_CODE":"E09000016","2010":170.0266317,"2013":148.9732874,"2016":137.3324741},"geometry":{"type":"Point","coordinates":[0.2211176,51.5643683]}},{"type":"Feature","properties":{"NAME":"Hillingdon","GSS_CODE":"E09000017","2010":360.9645084,"2013":289.9460762,"2016":278.8292401},"geometry":{"type":"Point","coordinates":[-0.445662,51.5414719]}},{"type":"Feature","properties":{"NAME":"Harrow","GSS_CODE":"E09000015","2010":115.7948266,"2013":111.2949587,"2016":96.1476782},"geometry":{"type":"Point","coordinates":[-0.3412742,51.5977187]}},{"type":"Feature","properties":{"NAME":"Brent","GSS_CODE":"E09000005","2010":143.2257242,"2013":125.3397174,"2016":117.7829303},"geometry":{"type":"Point","coordinates":[-0.2678113,51.5585544]}},{"type":"Feature","properties":{"NAME":"Barnet","GSS_CODE":"E09000003","2010":231.0401816,"2013":196.7116283,"2016":188.6191733},"geometry":{"type":"Point","coordinates":[-0.2100174,51.6160186]}},{"type":"Feature","properties":{"NAME":"Lambeth","GSS_CODE":"E09000022","2010":107.4690727,"2013":103.9727533,"2016":96.8671087},"geometry":{"type":"Point","coordinates":[-0.1182788,51.4530793]}},{"type":"Feature","properties":{"NAME":"Southwark","GSS_CODE":"E09000028","2010":111.2306537,"2013":92.9164064,"2016":89.3077781},"geometry":{"type":"Point","coordinates":[-0.0746025,51.4731375]}},{"type":"Feature","properties":{"NAME":"Lewisham","GSS_CODE":"E09000023","2010":106.445185,"2013":88.8646242,"2016":85.3838539},"geometry":{"type":"Point","coordinates":[-0.020251,51.4480863]}},{"type":"Feature","properties":{"NAME":"Greenwich","GSS_CODE":"E09000011","2010":201.5663072,"2013":165.6428975,"2016":139.2584285},"geometry":{"type":"Point","coordinates":[0.0566353,51.4727551]}},{"type":"Feature","properties":{"NAME":"Bexley","GSS_CODE":"E09000004","2010":165.746865,"2013":135.257544,"2016":143.6580812},"geometry":{"type":"Point","coordinates":[0.1403457,51.4588109]}},{"type":"Feature","properties":{"NAME":"Enfield","GSS_CODE":"E09000010","2010":216.0500741,"2013":163.6573511,"2016":168.0256656},"geometry":{"type":"Point","coordinates":[-0.0872645,51.650992]}},{"type":"Feature","properties":{"NAME":"Waltham Forest","GSS_CODE":"E09000031","2010":104.6829427,"2013":91.4501659,"2016":86.1213275},"geometry":{"type":"Point","coordinates":[-0.0126453,51.594022]}},{"type":"Feature","properties":{"NAME":"Redbridge","GSS_CODE":"E09000026","2010":140.3184541,"2013":115.8281933,"2016":108.084567},"geometry":{"type":"Point","coordinates":[0.0758657,51.5856699]}},{"type":"Feature","properties":{"NAME":"Sutton","GSS_CODE":"E09000029","2010":102.0331781,"2013":83.3119737,"2016":84.2082815},"geometry":{"type":"Point","coordinates":[-0.1775702,51.3620889]}},{"type":"Feature","properties":{"NAME":"Richmond upon Thames","GSS_CODE":"E09000027","2010":116.598079,"2013":93.3231522,"2016":86.8900775},"geometry":{"type":"Point","coordinates":[-0.3129891,51.4421713]}},{"type":"Feature","properties":{"NAME":"Merton","GSS_CODE":"E09000024","2010":103.958218,"2013":85.3306019,"2016":78.7775408},"geometry":{"type":"Point","coordinates":[-0.1972465,51.4099498]}},{"type":"Feature","properties":{"NAME":"Wandsworth","GSS_CODE":"E09000032","2010":134.8260562,"2013":117.6182287,"2016":103.3713161},"geometry":{"type":"Point","coordinates":[-0.186442,51.4513538]}},{"type":"Feature","properties":{"NAME":"Hammersmith and Fulham","GSS_CODE":"E09000013","2010":79.0939747,"2013":70.1009528,"2016":65.978674},"geometry":{"type":"Point","coordinates":[-0.2212787,51.4959479]}},{"type":"Feature","properties":{"NAME":"Kensington and Chelsea","GSS_CODE":"E09000020","2010":75.8422952,"2013":69.9635961,"2016":63.6899307},"geometry":{"type":"Point","coordinates":[-0.1927628,51.5016108]}},{"type":"Feature","properties":{"NAME":"Westminster","GSS_CODE":"E09000033","2010":222.612084,"2013":198.1343322,"2016":203.4788313},"geometry":{"type":"Point","coordinates":[-0.1612969,51.5138977]}},{"type":"Feature","properties":{"NAME":"Camden","GSS_CODE":"E09000007","2010":121.1122633,"2013":104.3397198,"2016":101.1319519},"geometry":{"type":"Point","coordinates":[-0.1574151,51.5463925]}},{"type":"Feature","properties":{"NAME":"Tower Hamlets","GSS_CODE":"E09000030","2010":118.1897565,"2013":104.0093223,"2016":113.4037729},"geometry":{"type":"Point","coordinates":[-0.0355841,51.5171694]}},{"type":"Feature","properties":{"NAME":"Islington","GSS_CODE":"E09000019","2010":78.1746132,"2013":66.9918798,"2016":62.6031842},"geometry":{"type":"Point","coordinates":[-0.1102463,51.5484834]}},{"type":"Feature","properties":{"NAME":"Hackney","GSS_CODE":"E09000012","2010":96.0629887,"2013":70.848112,"2016":71.7968418},"geometry":{"type":"Point","coordinates":[-0.0633153,51.5522649]}},{"type":"Feature","properties":{"NAME":"Haringey","GSS_CODE":"E09000014","2010":99.5217817,"2013":79.0635145,"2016":76.2555794},"geometry":{"type":"Point","coordinates":[-0.1074727,51.590374]}},{"type":"Feature","properties":{"NAME":"Newham","GSS_CODE":"E09000025","2010":162.075203,"2013":117.4169137,"2016":131.3991159},"geometry":{"type":"Point","coordinates":[0.0754787,51.529844]}},{"type":"Feature","properties":{"NAME":"Barking and Dagenham","GSS_CODE":"E09000002","2010":161.1914284,"2013":111.470403,"2016":104.478041},"geometry":{"type":"Point","coordinates":[0.1339515,51.5453334]}},{"type":"Feature","properties":{"NAME":"City of London","GSS_CODE":"E09000001","2010":51.3779515,"2013":46.2605564,"2016":45.2053687},"geometry":{"type":"Point","coordinates":[-0.0921711,51.5148448]}}]}